<?xml version="1.0" encoding="UTF-8"?>
<kml xmlns="http://www.opengis.net/kml/2.2">
<Document>
	<Style id="gastro_icon">
		<IconStyle>
			<color>ffff0000</color>
			<Icon>
				<href>kml/gastro.png</href>
			</Icon>  
		</IconStyle>
	</Style>
	<Style id="bar_icon">
		<IconStyle>
			<color>ffff0000</color>
			<Icon>
				<href>kml/bar.png</href>
			</Icon>  
		</IconStyle>
	</Style>
  
	<Placemark>
		<name>Historischer Ratskeller zu Dessau</name>
		<description>
			<![CDATA[
				<p>Zerbster St. 4a</br>06844 Dessau-Ro&szlig;lau</br>
				Url: <a href="http://www.ratskeller-dessau.de/">http://www.ratskeller-dessau.de//</a>		  
				</p>
			]]>
		</description>
		<styleUrl>#gastro_icon</styleUrl>
		<Point>
			<coordinates>12.24667,51.83471</coordinates>
		</Point>
    </Placemark>
	
	<Placemark>
		<name>Brauhaus Zum Alten Dessauer</name>
		<description>
			<![CDATA[
				<p>Lange Gasse 16</br>06844 Dessau-Ro&szlig;lau</br>
				Url: <a href="http://www.bauhaus-dessau.de/index.php?de">http://www.bauhaus-dessau.de/index.php?de/</a>		  
				</p>
			]]>
		</description>
		<styleUrl>#gastro_icon</styleUrl>
		<Point>
			<coordinates>12.24598,51.83544</coordinates>
		</Point>
    </Placemark>
	
	<Placemark>
		<name>Essbar</name>
		<description>
			<![CDATA[
				<p>Johannisstr. 18</br>06844 Dessau-Ro&szlig;lau</br>
				Url: <a href="http://www.essbar-dessau.de/index.php">http://www.essbar-dessau.de/index.php/</a>		  
				</p>
			]]>
		</description>
		<styleUrl>#gastro_icon</styleUrl>
		<Point>
			<coordinates>12.2422581,51.838451</coordinates>
		</Point>
    </Placemark>
	
	<Placemark>
		<name>Brasserie l’Appart</name>
		<description>
			<![CDATA[
				<p>Zerbster Straße 8</br>06844 Dessau-Ro&szlig;lau</br>
				Url: <a href="http://www.appartdessau.de">http://www.appartdessau.de/</a>		  
				</p>
			]]>
		</description>
		<styleUrl>#gastro_icon</styleUrl>
		<Point>
			<coordinates>12.247255,51.8353166</coordinates>
		</Point>
    </Placemark>
	
	<Placemark>
		<name>Athos</name>
		<description>
			<![CDATA[
				<p>Kornhausstraße 1</br>06846 Dessau-Ro&szlig;lau</br>
				Url: -		  
				</p>
			]]>
		</description>
		<styleUrl>#gastro_icon</styleUrl>
		<Point>
			<coordinates>12.2234259,51.844949</coordinates>
		</Point>
    </Placemark>
	
	<Placemark>
		<name>Stars Diner u. Chaplins</name>
		<description>
			<![CDATA[
				<p>Wolfgangstraße 14</br>06844 Dessau-Ro&szlig;lau</br>
				Url: - 
				</p>
			]]>
		</description>
		<styleUrl>#bar_icon</styleUrl>
		<Point>
			<coordinates>12.2386,51.83952</coordinates>
		</Point>
    </Placemark>
	
	<Placemark>
		<name>Landhaus Dessau</name>
		<description>
			<![CDATA[
				<p>Landhaus 1</br>06844 Dessau-Ro&szlig;lau</br>
				Url: <a href="http://www.landhaus-dessau.de">http://www.landhaus-dessau.de/</a>		  
				</p>
			]]>
		</description>
		<styleUrl>#gastro_icon</styleUrl>
		<Point>
			<coordinates>12.25638,51.85604</coordinates>
		</Point>
    </Placemark>
	
	<Placemark>
		<name>Antik-Pub Dessau</name>
		<description>
			<![CDATA[
				<p>Albrechtst. 10</br>06844 Dessau-Ro&szlig;lau</br>
				Url: - 
				</p>
			]]>
		</description>
		<styleUrl>#bar_icon</styleUrl>
		<Point>
			<coordinates>12.2453213,51.8400248</coordinates>
		</Point>
    </Placemark>
	
	<Placemark>
		<name>Bibers Corner</name>
		<description>
			<![CDATA[
				<p>Zerbster Straße 42</br>06844 Dessau-Ro&szlig;lau</br>
				Url: <a href="http://www.biberscorner.com">http://www.biberscorner.com/</a>	
				</p>
			]]>
		</description>
		<styleUrl>#bar_icon</styleUrl>
		<Point>
			<coordinates>12.2455146,51.8384839</coordinates>
		</Point>
    </Placemark>
	
	<Placemark>
		<name>Hexe's Tropica Dessau Nord</name>
		<description>
			<![CDATA[
				<p>Friedrich-Schneider-Straße 8</br>06844 Dessau-Ro&szlig;lau</br>
				Url: <a href="http://www.hexes-tropica.de">http://www.hexes-tropica.de/</a>	
				</p>
			]]>
		</description>
		<styleUrl>#bar_icon</styleUrl>
		<Point>
			<coordinates>12.24509,51.8445</coordinates>
		</Point>
    </Placemark>
	
	<Placemark>
		<name>Weinstuben Pächterhaus</name>
		<description>
			<![CDATA[
				<p>Kirchstraße 1</br>06846 Dessau-Ro&szlig;lau</br>
				Url: <a href="http://www.paechterhaus-dessau.de">http://www.paechterhaus-dessau.de/</a>		  
				</p>
			]]>
		</description>
		<styleUrl>#gastro_icon</styleUrl>
		<Point>
			<coordinates>12.2193336,51.8481852</coordinates>
		</Point>
    </Placemark>
 
</Document>
</kml>
